[
  {
    "Name":"A Lot East",
    "Latitude":42.458147,
    "Longitude":-76.475414
  },
  {
    "Name":"Airport",
    "Latitude":42.489067,
    "Longitude":-76.4626
  },
  {
    "Name":"Aldi",
    "Latitude":42.449233,
    "Longitude":-76.50645
  },
  {
    "Name":"Anabel Taylor Hall",
    "Latitude":42.444848,
    "Longitude":-76.485206
  },
  {
    "Name":"Aubles Trailer Park",
    "Latitude":42.547383,
    "Longitude":-76.676117
  },
  {
    "Name":"Aurora @ Commons",
    "Latitude":42.4394,
    "Longitude":-76.4956
  },
  {
    "Name":"Bailey Hall",
    "Latitude":42.449358,
    "Longitude":-76.4795
  },
  {
    "Name":"Baker Flagpole",
    "Latitude":42.44782,
    "Longitude":-76.487736
  },
  {
    "Name":"Baker Flagpole/Slopeside",
    "Latitude":42.447817,
    "Longitude":-76.487483
  },
  {
    "Name":"Balch Hall @ Cradit Farm",
    "Latitude":42.452915,
    "Longitude":-76.479397
  },
  {
    "Name":"Balch Hall @ Thurston",
    "Latitude":42.453068,
    "Longitude":-76.480967
  },
  {
    "Name":"Berkshire Village",
    "Latitude":42.304383,
    "Longitude":-76.1865
  },
  {
    "Name":"Boyce-Thompson Institute",
    "Latitude":42.447467,
    "Longitude":-76.467641
  },
  {
    "Name":"Bradfield Hall",
    "Latitude":42.447632,
    "Longitude":-76.475988
  },
  {
    "Name":"Bradfield Parking Lot",
    "Latitude":42.447512,
    "Longitude":-76.475197
  },
  {
    "Name":"Brooktondale Store",
    "Latitude":42.381583,
    "Longitude":-76.396667
  },
  {
    "Name":"Buffalo @ Aurora",
    "Latitude":42.44135,
    "Longitude":-76.4959
  },
  {
    "Name":"Buttermilk Falls",
    "Latitude":42.417217,
    "Longitude":-76.52365
  },
  {
    "Name":"Caroline Town Hall",
    "Latitude":42.393883,
    "Longitude":-76.349783
  },
  {
    "Name":"Caroline Turn-Around",
    "Latitude":42.378215,
    "Longitude":-76.278395
  },
  {
    "Name":"Carpenter Hall",
    "Latitude":42.444899,
    "Longitude":-76.484932
  },
  {
    "Name":"Cass Park",
    "Latitude":42.442983,
    "Longitude":-76.514833
  },
  {
    "Name":"Cayuga @ Boynton MS",
    "Latitude":42.4612,
    "Longitude":-76.49985
  },
  {
    "Name":"Cayuga @ Commons",
    "Latitude":42.43985,
    "Longitude":-76.499133
  },
  {
    "Name":"Cayuga @ Court",
    "Latitude":42.442598,
    "Longitude":-76.49907
  },
  {
    "Name":"Cayuga @ Lincoln",
    "Latitude":42.452017,
    "Longitude":-76.49965
  },
  {
    "Name":"Cayuga @ Tompkins",
    "Latitude":42.448433,
    "Longitude":-76.499433
  },
  {
    "Name":"Cayuga @ West Falls",
    "Latitude":42.452783,
    "Longitude":-76.499817
  },
  {
    "Name":"Cayuga Heights Fire Dept",
    "Latitude":42.46849,
    "Longitude":-76.47845
  },
  {
    "Name":"Cayuga Medical Center",
    "Latitude":42.46761,
    "Longitude":-76.538279
  },
  {
    "Name":"Cayuga Nature Center",
    "Latitude":42.519314,
    "Longitude":-76.554731
  },
  {
    "Name":"Clinton @ Corn",
    "Latitude":42.436683,
    "Longitude":-76.506417
  },
  {
    "Name":"Clinton @ Geneva",
    "Latitude":42.436842,
    "Longitude":-76.500593
  },
  {
    "Name":"Clinton @ Meadow",
    "Latitude":42.436733,
    "Longitude":-76.508233
  },
  {
    "Name":"Clinton West Plaza",
    "Latitude":42.436683,
    "Longitude":-76.506417
  },
  {
    "Name":"College @ Dryden",
    "Latitude":42.441757,
    "Longitude":-76.485153
  },
  {
    "Name":"College @ Mitchell",
    "Latitude":42.437683,
    "Longitude":-76.485164
  },
  {
    "Name":"Convenient Care",
    "Latitude":42.478917,
    "Longitude":-76.467
  },
  {
    "Name":"Cornell @ Mitchell",
    "Latitude":42.43788,
    "Longitude":-76.477475
  },
  {
    "Name":"Corson/Mudd Hall",
    "Latitude":42.447499,
    "Longitude":-76.47948
  },
  {
    "Name":"Court @ Cayuga",
    "Latitude":42.44255,
    "Longitude":-76.498933
  },
  {
    "Name":"Court @ Linn",
    "Latitude":42.443103,
    "Longitude":-76.494408
  },
  {
    "Name":"Dairy Bar",
    "Latitude":42.447482,
    "Longitude":-76.471183
  },
  {
    "Name":"Dairy Bar Across Street",
    "Latitude":42.447649,
    "Longitude":-76.471048
  },
  {
    "Name":"Danby Fire Station",
    "Latitude":42.367333,
    "Longitude":-76.4875
  },
  {
    "Name":"Depot @ Valley Manor",
    "Latitude":42.368917,
    "Longitude":-76.557467
  },
  {
    "Name":"Dey @ Lincoln",
    "Latitude":42.45123,
    "Longitude":-76.502892
  },
  {
    "Name":"Dryden South",
    "Latitude":42.47232,
    "Longitude":-76.294792
  },
  {
    "Name":"Dryden Village",
    "Latitude":42.490817,
    "Longitude":-76.299383
  },
  {
    "Name":"Duffield Hall",
    "Latitude":42.445216,
    "Longitude":-76.482425
  },
  {
    "Name":"East Hill Plaza",
    "Latitude":42.437659,
    "Longitude":-76.462654
  },
  {
    "Name":"Eastern Hts. @ Skyvue",
    "Latitude":42.422262,
    "Longitude":-76.44839
  },
  {
    "Name":"Ellis Hollow @ Turkey Hi",
    "Latitude":42.430783,
    "Longitude":-76.428317
  },
  {
    "Name":"Ellis Hollow Comm. Cente",
    "Latitude":42.431017,
    "Longitude":-76.415383
  },
  {
    "Name":"Elm @ West Village",
    "Latitude":42.4365,
    "Longitude":-76.5225
  },
  {
    "Name":"Elmira @ Spencer",
    "Latitude":42.42,
    "Longitude":-76.519317
  },
  {
    "Name":"Enfield Center",
    "Latitude":42.437817,
    "Longitude":-76.630967
  },
  {
    "Name":"Enfield Park-n-Ride",
    "Latitude":42.4585,
    "Longitude":-76.630883
  },
  {
    "Name":"Etna @ Pinckney",
    "Latitude":42.487183,
    "Longitude":-76.409683
  },
  {
    "Name":"Etna Mills Apartments",
    "Latitude":42.48347,
    "Longitude":-76.387969
  },
  {
    "Name":"Freeville Park-n-Ride",
    "Latitude":42.512079,
    "Longitude":-76.350461
  },
  {
    "Name":"Freeville Village",
    "Latitude":42.512001,
    "Longitude":-76.350384
  },
  {
    "Name":"Geneva @ Court",
    "Latitude":42.442583,
    "Longitude":-76.500933
  },
  {
    "Name":"GIAC",
    "Latitude":42.442438,
    "Longitude":-76.501951
  },
  {
    "Name":"Goldwin Smith Hall",
    "Latitude":42.449881,
    "Longitude":-76.483012
  },
  {
    "Name":"Green @ Commons",
    "Latitude":42.438546,
    "Longitude":-76.498701
  },
  {
    "Name":"Groton Main Street",
    "Latitude":42.586417,
    "Longitude":-76.366483
  },
  {
    "Name":"Groton Town Hall",
    "Latitude":42.58985,
    "Longitude":-76.369233
  },
  {
    "Name":"Hancock Plaza",
    "Latitude":42.446667,
    "Longitude":-76.504883
  },
  {
    "Name":"Hanshaw @ Warren",
    "Latitude":42.467115,
    "Longitude":-76.46595
  },
  {
    "Name":"Hasbrouck Apts.",
    "Latitude":42.456261,
    "Longitude":-76.471623
  },
  {
    "Name":"Hector @ Warren",
    "Latitude":42.448617,
    "Longitude":-76.5263
  },
  {
    "Name":"Helen Newman",
    "Latitude":42.453186,
    "Longitude":-76.476858
  },
  {
    "Name":"Highland @ Thurston",
    "Latitude":42.453833,
    "Longitude":-76.486536
  },
  {
    "Name":"Hillside View Trailer Pa",
    "Latitude":42.330467,
    "Longitude":-76.4433
  },
  {
    "Name":"Hudson @ Grandview",
    "Latitude":42.431283,
    "Longitude":-76.492417
  },
  {
    "Name":"Hudson @ Pearsall",
    "Latitude":42.431494,
    "Longitude":-76.492032
  },
  {
    "Name":"Ithaca Bus Station",
    "Latitude":42.43935,
    "Longitude":-76.51105
  },
  {
    "Name":"Ithaca Rd. @ Dryden Rd.",
    "Latitude":42.441065,
    "Longitude":-76.477597
  },
  {
    "Name":"Jacksonville Post Office",
    "Latitude":42.507867,
    "Longitude":-76.614233
  },
  {
    "Name":"Jessup @ Pleasant Grove",
    "Latitude":42.456685,
    "Longitude":-76.474572
  },
  {
    "Name":"Juniper Manor",
    "Latitude":42.540661,
    "Longitude":-76.661659
  },
  {
    "Name":"Keith @ Lake",
    "Latitude":42.470188,
    "Longitude":-76.283162
  },
  {
    "Name":"Kennedy Hall",
    "Latitude":42.447647,
    "Longitude":-76.479345
  },
  {
    "Name":"Lake @ Ithaca HS",
    "Latitude":42.455117,
    "Longitude":-76.49595
  },
  {
    "Name":"Langmuir Lab",
    "Latitude":42.485533,
    "Longitude":-76.4581
  },
  {
    "Name":"Lansing Fire Co. #3",
    "Latitude":42.587233,
    "Longitude":-76.590083
  },
  {
    "Name":"Lansing HS",
    "Latitude":42.542383,
    "Longitude":-76.537033
  },
  {
    "Name":"Lansing Town Hall",
    "Latitude":42.53825,
    "Longitude":-76.4994
  },
  {
    "Name":"Lansing West Apts.",
    "Latitude":42.479,
    "Longitude":-76.482683
  },
  {
    "Name":"Linderman Creek Apts.",
    "Latitude":42.449307,
    "Longitude":-76.530451
  },
  {
    "Name":"Longview",
    "Latitude":42.416869,
    "Longitude":-76.503316
  },
  {
    "Name":"Lower Creek Rd.",
    "Latitude":42.479767,
    "Longitude":-76.4001
  },
  {
    "Name":"Ludlowville",
    "Latitude":42.553583,
    "Longitude":-76.537483
  },
  {
    "Name":"McLean",
    "Latitude":42.549667,
    "Longitude":-76.294483
  },
  {
    "Name":"Meadow @ Elmira",
    "Latitude":42.428367,
    "Longitude":-76.5081
  },
  {
    "Name":"Morrison Hall",
    "Latitude":42.447395,
    "Longitude":-76.469791
  },
  {
    "Name":"Myers Point Rd. @ Rt. 34",
    "Latitude":42.5423,
    "Longitude":-76.53735
  },
  {
    "Name":"N. Cayuga @ Boynton MS",
    "Latitude":42.461822,
    "Longitude":-76.499214
  },
  {
    "Name":"N. Cayuga @ Ithaca HS",
    "Latitude":42.454783,
    "Longitude":-76.499667
  },
  {
    "Name":"N. Lansing Fire Co. #4",
    "Latitude":42.612975,
    "Longitude":-76.497034
  },
  {
    "Name":"Nates Floral Estates",
    "Latitude":42.436367,
    "Longitude":-76.512918
  },
  {
    "Name":"Newark Valley",
    "Latitude":42.224042,
    "Longitude":-76.18373
  },
  {
    "Name":"Newfield Central School",
    "Latitude":42.360167,
    "Longitude":-76.59725
  },
  {
    "Name":"Newfield Depot @ W. Danb",
    "Latitude":42.3686,
    "Longitude":-76.552317
  },
  {
    "Name":"Newfield Town Hall",
    "Latitude":42.363417,
    "Longitude":-76.588267
  },
  {
    "Name":"Northwood Apts.",
    "Latitude":42.48625,
    "Longitude":-76.469567
  },
  {
    "Name":"Ornithology Lab",
    "Latitude":42.480507,
    "Longitude":-76.449042
  },
  {
    "Name":"Overlook Apts.",
    "Latitude":42.46575,
    "Longitude":-76.5403
  },
  {
    "Name":"Parkway @ Upland",
    "Latitude":42.463751,
    "Longitude":-76.486608
  },
  {
    "Name":"Parkwood Village",
    "Latitude":42.47275,
    "Longitude":-76.4215
  },
  {
    "Name":"Pinckney @ Lower Creek",
    "Latitude":42.477183,
    "Longitude":-76.406233
  },
  {
    "Name":"Pine Tree @ Rt. 79",
    "Latitude":42.422583,
    "Longitude":-76.4618
  },
  {
    "Name":"Pleasant Grove @ Hanshaw",
    "Latitude":42.468133,
    "Longitude":-76.4781
  },
  {
    "Name":"Public Safety Building",
    "Latitude":42.492333,
    "Longitude":-76.467983
  },
  {
    "Name":"Public Safety Building A",
    "Latitude":42.492333,
    "Longitude":-76.467983
  },
  {
    "Name":"Pyramid Mall @ Sears",
    "Latitude":42.4829,
    "Longitude":-76.489917
  },
  {
    "Name":"Richford",
    "Latitude":42.356533,
    "Longitude":-76.205667
  },
  {
    "Name":"Riley-Robb Hall",
    "Latitude":42.445422,
    "Longitude":-76.46977
  },
  {
    "Name":"Risley Hall",
    "Latitude":42.452872,
    "Longitude":-76.481224
  },
  {
    "Name":"Rockefeller Hall",
    "Latitude":42.449501,
    "Longitude":-76.482696
  },
  {
    "Name":"Roy Park School",
    "Latitude":42.424285,
    "Longitude":-76.495082
  },
  {
    "Name":"RPCC @ Jameson",
    "Latitude":42.456228,
    "Longitude":-76.478239
  },
  {
    "Name":"Rt. 13 @ George",
    "Latitude":42.489835,
    "Longitude":-76.328362
  },
  {
    "Name":"Rt. 13 @ Irish Settlemen",
    "Latitude":42.489669,
    "Longitude":-76.327995
  },
  {
    "Name":"Rt. 13 @ Johnson",
    "Latitude":42.48715,
    "Longitude":-76.343217
  },
  {
    "Name":"Rt. 13 @ Kirk",
    "Latitude":42.480767,
    "Longitude":-76.373783
  },
  {
    "Name":"Rt. 13 @ Yellowbarn",
    "Latitude":42.48715,
    "Longitude":-76.343217
  },
  {
    "Name":"Rt. 79 @ Crispell's",
    "Latitude":42.401991,
    "Longitude":-76.422444
  },
  {
    "Name":"Rt. 79 @ EcoVillage",
    "Latitude":42.448212,
    "Longitude":-76.539471
  },
  {
    "Name":"Rt. 79 @ Enfield Main Rd",
    "Latitude":42.450978,
    "Longitude":-76.631117
  },
  {
    "Name":"Rt. 79 @ Honness Lane",
    "Latitude":42.429367,
    "Longitude":-76.471517
  },
  {
    "Name":"Sage Hall",
    "Latitude":42.445501,
    "Longitude":-76.482789
  },
  {
    "Name":"Schwartz PAC",
    "Latitude":42.442664,
    "Longitude":-76.485342
  },
  {
    "Name":"Seneca @ Commons",
    "Latitude":42.440457,
    "Longitude":-76.496148
  },
  {
    "Name":"Seneca Way",
    "Latitude":42.439688,
    "Longitude":-76.494019
  },
  {
    "Name":"Sibley Hall",
    "Latitude":42.451317,
    "Longitude":-76.483462
  },
  {
    "Name":"Spencer Rd.",
    "Latitude":42.419583,
    "Longitude":-76.5187
  },
  {
    "Name":"State @ Commons",
    "Latitude":42.439477,
    "Longitude":-76.499145
  },
  {
    "Name":"State @ Corn",
    "Latitude":42.4392,
    "Longitude":-76.506333
  },
  {
    "Name":"State @ Fulton",
    "Latitude":42.439061,
    "Longitude":-76.510322
  },
  {
    "Name":"Stewart Park",
    "Latitude":42.462652,
    "Longitude":-76.50045
  },
  {
    "Name":"Taughannock Falls State",
    "Latitude":42.544675,
    "Longitude":-76.597481
  },
  {
    "Name":"TC3",
    "Latitude":42.5028,
    "Longitude":-76.288417
  },
  {
    "Name":"TCAT Offices",
    "Latitude":42.452567,
    "Longitude":-76.505517
  },
  {
    "Name":"Teagle Hall",
    "Latitude":42.445769,
    "Longitude":-76.479703
  },
  {
    "Name":"The Towers @ Ithaca Coll",
    "Latitude":42.420763,
    "Longitude":-76.495777
  },
  {
    "Name":"Third @ Hancock",
    "Latitude":42.446667,
    "Longitude":-76.504883
  },
  {
    "Name":"Thornwood Dr.",
    "Latitude":42.487417,
    "Longitude":-76.465083
  },
  {
    "Name":"Thurston @ Ridgewood",
    "Latitude":42.454281,
    "Longitude":-76.488829
  },
  {
    "Name":"Tioga @ Lincoln",
    "Latitude":42.452133,
    "Longitude":-76.497683
  },
  {
    "Name":"Titus Towers I",
    "Latitude":42.431567,
    "Longitude":-76.504417
  },
  {
    "Name":"Tobin Field House",
    "Latitude":42.45642,
    "Longitude":-76.480995
  },
  {
    "Name":"Tompkins @ Cayuga",
    "Latitude":42.448433,
    "Longitude":-76.499433
  },
  {
    "Name":"Tompkins @ Dey",
    "Latitude":42.448383,
    "Longitude":-76.5008
  },
  {
    "Name":"Tompkins Trust Co. NE",
    "Latitude":42.478167,
    "Longitude":-76.481967
  },
  {
    "Name":"Tops Supermarket (Ithaca",
    "Latitude":42.431967,
    "Longitude":-76.509683
  },
  {
    "Name":"Tops Supermarket (Lansin",
    "Latitude":42.484033,
    "Longitude":-76.486617
  },
  {
    "Name":"Towerview Apts.",
    "Latitude":42.430367,
    "Longitude":-76.524133
  },
  {
    "Name":"Town Houses",
    "Latitude":42.456724,
    "Longitude":-76.475985
  },
  {
    "Name":"Triphammer @ Cayuga Mall",
    "Latitude":42.483,
    "Longitude":-76.48525
  },
  {
    "Name":"Triphammer @ Hanshaw",
    "Latitude":42.470133,
    "Longitude":-76.480367
  },
  {
    "Name":"Triphammer @ Sheraton",
    "Latitude":42.478167,
    "Longitude":-76.481967
  },
  {
    "Name":"Triphammer @ Upland",
    "Latitude":42.4697,
    "Longitude":-76.479917
  },
  {
    "Name":"Trumansburg Central Scho",
    "Latitude":42.539283,
    "Longitude":-76.653167
  },
  {
    "Name":"Turkey Hill @ Dryden",
    "Latitude":42.460217,
    "Longitude":-76.427367
  },
  {
    "Name":"University @ Lake",
    "Latitude":42.449542,
    "Longitude":-76.492056
  },
  {
    "Name":"Uptown Village Apts.",
    "Latitude":42.478467,
    "Longitude":-76.471867
  },
  {
    "Name":"Uris Hall",
    "Latitude":42.447484,
    "Longitude":-76.482116
  },
  {
    "Name":"Uris Hall Across Street",
    "Latitude":42.447621,
    "Longitude":-76.482054
  },
  {
    "Name":"Varna",
    "Latitude":42.454283,
    "Longitude":-76.440733
  },
  {
    "Name":"Vet Medical Center",
    "Latitude":42.446463,
    "Longitude":-76.464828
  },
  {
    "Name":"Vet School",
    "Latitude":42.447229,
    "Longitude":-76.466659
  },
  {
    "Name":"Village Meadows",
    "Latitude":42.485533,
    "Longitude":-76.481083
  },
  {
    "Name":"WalMart",
    "Latitude":42.4274,
    "Longitude":-76.513617
  },
  {
    "Name":"Warren Pl. @ Cliff Park",
    "Latitude":42.441998,
    "Longitude":-76.524185
  },
  {
    "Name":"Warren Rd. @ Farrell",
    "Latitude":42.514467,
    "Longitude":-76.472
  },
  {
    "Name":"Wegmans",
    "Latitude":42.435233,
    "Longitude":-76.509867
  },
  {
    "Name":"Winston Ct.",
    "Latitude":42.475633,
    "Longitude":-76.45755
  },
  {
    "Name":"Wyckoff @ Highland",
    "Latitude":42.456325,
    "Longitude":-76.485983
  },
  {
    "Name":"ZoneChange1",
    "Latitude":42.491228,
    "Longitude":-76.539522
  },
  {
    "Name":"ZoneChange2",
    "Latitude":42.480302,
    "Longitude":-76.560959
  },
  {
    "Name":"ZoneChange3",
    "Latitude":42.447344,
    "Longitude":-76.571202
  },
  {
    "Name":"ZoneChange4",
    "Latitude":42.398308,
    "Longitude":-76.546059
  },
  {
    "Name":"ZoneChange5",
    "Latitude":42.39441,
    "Longitude":-76.497668
  },
  {
    "Name":"ZoneChange7",
    "Latitude":42.405348,
    "Longitude":-76.429411
  },
  {
    "Name":"ZoneChange8",
    "Latitude":42.470828,
    "Longitude":-76.402531
  },
  {
    "Name":"ZoneChange9",
    "Latitude":42.518045,
    "Longitude":-76.472156
  },
  {
    "Name":"ZoneChange10",
    "Latitude":42.48616,
    "Longitude":-76.409051
  },
  {
    "Name":"ZoneChange11",
    "Latitude":42.515626,
    "Longitude":-76.50835
  },
  {
    "Name":"Parkway @ Cayuga Heights",
    "Latitude":42.465002,
    "Longitude":-76.486787
  },
  {
    "Name":"SPCA",
    "Latitude":42.471816,
    "Longitude":-76.438805
  },
  {
    "Name":"Thurston @ Wyckoff",
    "Latitude":42.453693,
    "Longitude":-76.48379
  },
  {
    "Name":"Seneca Way",
    "Latitude":42.439688,
    "Longitude":-76.494019
  },
  {
    "Name":"Etna",
    "Latitude":42.485177,
    "Longitude":-76.383746
  },
  {
    "Name":"Highland @ Congregationa",
    "Latitude":42.457628,
    "Longitude":-76.48636
  },
  {
    "Name":"Tioga @ Court",
    "Latitude":42.4425,
    "Longitude":-76.4969
  },
  {
    "Name":"Franziska Racker Center",
    "Latitude":42.4931,
    "Longitude":-76.5547
  },
  {
    "Name":"ZoneChange12",
    "Latitude":42.493562,
    "Longitude":-76.554905
  },
  {
    "Name":"University @ Cornell",
    "Latitude":42.447265,
    "Longitude":-76.492996
  },
  {
    "Name":"Boldt Hall",
    "Latitude":42.44921,
    "Longitude":-76.489279
  },
  {
    "Name":"PnR - Brooktondale",
    "Latitude":42.380887,
    "Longitude":-76.393655
  },
  {
    "Name":"PnR - Caroline",
    "Latitude":42.393951,
    "Longitude":-76.349545
  },
  {
    "Name":"PnR - Danby",
    "Latitude":42.33078,
    "Longitude":-76.443309
  },
  {
    "Name":"PnR - Dryden (TC3)",
    "Latitude":42.503305,
    "Longitude":-76.288492
  },
  {
    "Name":"PnR - Dryden (Village)",
    "Latitude":42.489784,
    "Longitude":-76.297682
  },
  {
    "Name":"PnR - Enfield",
    "Latitude":42.450699,
    "Longitude":-76.631387
  },
  {
    "Name":"PnR - Lansing (Mall)",
    "Latitude":42.483012,
    "Longitude":-76.492466
  },
  {
    "Name":"PnR - Lansing (Rt. 34)",
    "Latitude":42.612977,
    "Longitude":-76.497023
  },
  {
    "Name":"PnR - Lansing (Rt. 34B)",
    "Latitude":42.587379,
    "Longitude":-76.590003
  },
  {
    "Name":"PnR - Freeville",
    "Latitude":42.512081,
    "Longitude":-76.350599
  },
  {
    "Name":"PnR - Groton",
    "Latitude":42.589321,
    "Longitude":-76.369073
  },
  {
    "Name":"PnR - Newfield",
    "Latitude":42.36328,
    "Longitude":-76.588122
  },
  {
    "Name":"PnR - Trumansburg",
    "Latitude":42.541697,
    "Longitude":-76.666412
  },
  {
    "Name":"PnR - Lansing (Town H)",
    "Latitude":42.538167,
    "Longitude":-76.499395
  },
  {
    "Name":"B Lot Center",
    "Latitude":42.446737,
    "Longitude":-76.463345
  },
  {
    "Name":"A Lot West",
    "Latitude":42.458059,
    "Longitude":-76.477289
  },
  {
    "Name":"B Lot West",
    "Latitude":42.445759,
    "Longitude":-76.463659
  },
  {
    "Name":"B Lot East",
    "Latitude":42.446375,
    "Longitude":-76.462065
  },
  {
    "Name":"Maplewood @ Mitchell",
    "Latitude":42.43778,
    "Longitude":-76.472094
  },
  {
    "Name":"RPCC @ Jessup Rd",
    "Latitude":42.456645,
    "Longitude":-76.477032
  },
  {
    "Name":"Jessup @ Sisson",
    "Latitude":42.456978,
    "Longitude":-76.478446
  },
  {
    "Name":"Maple Hill Apartments",
    "Latitude":42.441374,
    "Longitude":-76.471783
  },
  {
    "Name":"Akwekon",
    "Latitude":42.456336,
    "Longitude":-76.480934
  },
  {
    "Name":"Appel Commons",
    "Latitude":42.453281,
    "Longitude":-76.476682
  },
  {
    "Name":"Barton Hall",
    "Latitude":42.445962,
    "Longitude":-76.479845
  },
  {
    "Name":"Maple @ Maplewood Park",
    "Latitude":42.441357,
    "Longitude":-76.475027
  },
  {
    "Name":"Statler Hall",
    "Latitude":42.446013,
    "Longitude":-76.482517
  },
  {
    "Name":"Stewart @ University",
    "Latitude":42.449116,
    "Longitude":-76.490238
  },
  {
    "Name":"Stewart @ Williams",
    "Latitude":42.442412,
    "Longitude":-76.489775
  }
]